{"nhits": 33121, "parameters": {"dataset": "georef-united-states-of-america-zc-point", "timezone": "UTC", "q": ["", ""], "rows": 10, "start": 0, "sort": ["-density"], "format": "json", "facet": ["coty_name", "cty_code", "stusps_code", "ste_name", "coty_name", "cty_code=('42.8802', '-78.8432', 10)"]}, "records": [{"datasetid": "georef-united-states-of-america-zc-point", "recordid": "cfa181c06c755caf423b7889f4d03c9458232ee9", "fields": {"coty_name": "Dorado", "density": 0.0, "imprecise": "FALSE", "stusps_code": "PR", "primary_coty_code": "72051", "usps_city": "Toa Baja", "geo_point_2d": [18.46208, -66.2376], "county_weights": "{\"72051\": \"100\"}", "primary_coty_name": "Dorado", "cty_code": "72051", "timezone": "America/Puerto_Rico", "ste_name": "Puerto Rico", "military": "FALSE", "population": 0.0, "zcta": "TRUE", "zip_code": "950"}, "geometry": {"type": "Point", "coordinates": [-66.2376, 18.46208]}, "record_timestamp": "2021-06-03T17:02:02.935000+00:00"}, {"datasetid": "georef-united-states-of-america-zc-point", "recordid": "03973ff718ca6899ee04f2ca221d3013b2ca824d", "fields": {"coty_name": "New York", "density": 0.0, "imprecise": "FALSE", "stusps_code": "NY", "primary_coty_code": "36061", "usps_city": "New York", "geo_point_2d": [40.7545, -73.98226], "county_weights": "{\"36061\": \"0\"}", "primary_coty_name": "New York", "cty_code": "36061", "timezone": "America/New_York", "ste_name": "New York", "military": "FALSE", "population": 0.0, "zcta": "TRUE", "zip_code": "10110"}, "geometry": {"type": "Point", "coordinates": [-73.98226, 40.7545]}, "record_timestamp": "2021-06-03T17:02:02.935000+00:00"}, {"datasetid": "georef-united-states-of-america-zc-point", "recordid": "dc752c618f12b844c88fa7e89c76256f8598ead1", "fields": {"coty_name": "New York", "density": 0.0, "imprecise": "FALSE", "stusps_code": "NY", "primary_coty_code": "36061", "usps_city": "New York", "geo_point_2d": [40.75213, -73.97872], "county_weights": "{\"36061\": \"100\"}", "primary_coty_name": "New York", "cty_code": "36061", "timezone": "America/New_York", "ste_name": "New York", "military": "FALSE", "population": 0.0, "zcta": "TRUE", "zip_code": "10165"}, "geometry": {"type": "Point", "coordinates": [-73.97872, 40.75213]}, "record_timestamp": "2021-06-03T17:02:02.935000+00:00"}, {"datasetid": "georef-united-states-of-america-zc-point", "recordid": "924e57a8261efbc9afce363393fe1f378445f20d", "fields": {"coty_name": "Allegheny", "density": 0.0, "imprecise": "FALSE", "stusps_code": "PA", "primary_coty_code": "42003", "usps_city": "Pittsburgh", "geo_point_2d": [40.45734, -80.0193], "county_weights": "{\"42003\": \"0\"}", "primary_coty_name": "Allegheny", "cty_code": "42003", "timezone": "America/New_York", "ste_name": "Pennsylvania", "military": "FALSE", "population": 0.0, "zcta": "TRUE", "zip_code": "15290"}, "geometry": {"type": "Point", "coordinates": [-80.0193, 40.45734]}, "record_timestamp": "2021-06-03T17:02:02.935000+00:00"}, {"datasetid": "georef-united-states-of-america-zc-point", "recordid": "186618ca36430dbf9aa783634cd53a8d2dade473", "fields": {"coty_name": "Philadelphia", "density": 0.0, "imprecise": "FALSE", "stusps_code": "PA", "primary_coty_code": "42101", "usps_city": "Philadelphia", "geo_point_2d": [39.94966, -75.16365], "county_weights": "{\"42101\": \"0\"}", "primary_coty_name": "Philadelphia", "cty_code": "42101", "timezone": "America/New_York", "ste_name": "Pennsylvania", "military": "FALSE", "population": 0.0, "zcta": "TRUE", "zip_code": "19109"}, "geometry": {"type": "Point", "coordinates": [-75.16365, 39.94966]}, "record_timestamp": "2021-06-03T17:02:02.935000+00:00"}, {"datasetid": "georef-united-states-of-america-zc-point", "recordid": "4e00b56430f75d35f66382746600dadc9e63cd2c", "fields": {"coty_name": "Chester", "density": 0.0, "imprecise": "FALSE", "stusps_code": "PA", "primary_coty_code": "42029", "usps_city": "Unionville", "geo_point_2d": [39.90044, -75.74032], "county_weights": "{\"42029\": \"100\"}", "primary_coty_name": "Chester", "cty_code": "42029", "timezone": "America/New_York", "ste_name": "Pennsylvania", "military": "FALSE", "population": 0.0, "zcta": "TRUE", "zip_code": "19375"}, "geometry": {"type": "Point", "coordinates": [-75.74032, 39.90044]}, "record_timestamp": "2021-06-03T17:02:02.935000+00:00"}, {"datasetid": "georef-united-states-of-america-zc-point", "recordid": "bdc2de2eeaa21b334ecbda943780f6380878b74d", "fields": {"coty_name": "District of Columbia", "density": 0.0, "imprecise": "FALSE", "stusps_code": "DC", "primary_coty_code": "11001", "usps_city": "Washington", "geo_point_2d": [38.88631, -77.03016], "county_weights": "{\"11001\": \"0\"}", "primary_coty_name": "District of Columbia", "cty_code": "11001", "timezone": "America/New_York", "ste_name": "District of Columbia", "military": "FALSE", "population": 0.0, "zcta": "TRUE", "zip_code": "20228"}, "geometry": {"type": "Point", "coordinates": [-77.03016, 38.88631]}, "record_timestamp": "2021-06-03T17:02:02.935000+00:00"}, {"datasetid": "georef-united-states-of-america-zc-point", "recordid": "37b7c84d3a3c185926a5ba6102fb0ee5f40358a1", "fields": {"coty_name": "District of Columbia", "density": 0.0, "imprecise": "FALSE", "stusps_code": "DC", "primary_coty_code": "11001", "usps_city": "Washington", "geo_point_2d": [38.8928, -77.04776], "county_weights": "{\"11001\": \"0\"}", "primary_coty_name": "District of Columbia", "cty_code": "11001", "timezone": "America/New_York", "ste_name": "District of Columbia", "military": "FALSE", "population": 0.0, "zcta": "TRUE", "zip_code": "20418"}, "geometry": {"type": "Point", "coordinates": [-77.04776, 38.8928]}, "record_timestamp": "2021-06-03T17:02:02.935000+00:00"}, {"datasetid": "georef-united-states-of-america-zc-point", "recordid": "919b1c78f56da9b6abe3d4f4be450310cd4f7ad8", "fields": {"coty_name": "St. Louis", "density": 0.0, "imprecise": "FALSE", "stusps_code": "MO", "primary_coty_code": "29510", "usps_city": "Saint Louis", "geo_point_2d": [38.62788, -90.20545], "county_weights": "{\"29510\": \"0\"}", "primary_coty_name": "St. Louis", "cty_code": "29510", "timezone": "America/Chicago", "ste_name": "Missouri", "military": "FALSE", "population": 0.0, "zcta": "TRUE", "zip_code": "63155"}, "geometry": {"type": "Point", "coordinates": [-90.20545, 38.62788]}, "record_timestamp": "2021-06-03T17:02:02.935000+00:00"}, {"datasetid": "georef-united-states-of-america-zc-point", "recordid": "d8aa27c0bc642477e01406cb8649fadef15829da", "fields": {"coty_name": "Stoddard", "density": 0.0, "imprecise": "FALSE", "stusps_code": "MO", "primary_coty_code": "29207", "usps_city": "Brownwood", "geo_point_2d": [37.0893, -89.95738], "county_weights": "{\"29207\": \"100\"}", "primary_coty_name": "Stoddard", "cty_code": "29207", "timezone": "America/Chicago", "ste_name": "Missouri", "military": "FALSE", "population": 0.0, "zcta": "TRUE", "zip_code": "63738"}, "geometry": {"type": "Point", "coordinates": [-89.95738, 37.0893]}, "record_timestamp": "2021-06-03T17:02:02.935000+00:00"}], "facet_groups": [{"facets": [{"count": 1935, "path": "Texas", "state": "displayed", "name": "Texas"}, {"count": 1795, "path": "Pennsylvania", "state": "displayed", "name": "Pennsylvania"}, {"count": 1794, "path": "New York", "state": "displayed", "name": "New York"}, {"count": 1761, "path": "California", "state": "displayed", "name": "California"}, {"count": 1383, "path": "Illinois", "state": "displayed", "name": "Illinois"}, {"count": 1195, "path": "Ohio", "state": "displayed", "name": "Ohio"}, {"count": 1022, "path": "Missouri", "state": "displayed", "name": "Missouri"}, {"count": 986, "path": "Michigan", "state": "displayed", "name": "Michigan"}, {"count": 981, "path": "Florida", "state": "displayed", "name": "Florida"}, {"count": 934, "path": "Iowa", "state": "displayed", "name": "Iowa"}, {"count": 896, "path": "Virginia", "state": "displayed", "name": "Virginia"}, {"count": 884, "path": "Minnesota", "state": "displayed", "name": "Minnesota"}, {"count": 808, "path": "North Carolina", "state": "displayed", "name": "North Carolina"}, {"count": 775, "path": "Indiana", "state": "displayed", "name": "Indiana"}, {"count": 772, "path": "Wisconsin", "state": "displayed", "name": "Wisconsin"}, {"count": 767, "path": "Kentucky", "state": "displayed", "name": "Kentucky"}, {"count": 735, "path": "Georgia", "state": "displayed", "name": "Georgia"}, {"count": 706, "path": "West Virginia", "state": "displayed", "name": "West Virginia"}, {"count": 697, "path": "Kansas", "state": "displayed", "name": "Kansas"}, {"count": 648, "path": "Oklahoma", "state": "displayed", "name": "Oklahoma"}, {"count": 642, "path": "Alabama", "state": "displayed", "name": "Alabama"}, {"count": 628, "path": "Tennessee", "state": "displayed", "name": "Tennessee"}, {"count": 596, "path": "Washington", "state": "displayed", "name": "Washington"}, {"count": 595, "path": "New Jersey", "state": "displayed", "name": "New Jersey"}, {"count": 591, "path": "Arkansas", "state": "displayed", "name": "Arkansas"}, {"count": 581, "path": "Nebraska", "state": "displayed", "name": "Nebraska"}, {"count": 537, "path": "Massachusetts", "state": "displayed", "name": "Massachusetts"}, {"count": 525, "path": "Colorado", "state": "displayed", "name": "Colorado"}, {"count": 515, "path": "Louisiana", "state": "displayed", "name": "Louisiana"}, {"count": 468, "path": "Maryland", "state": "displayed", "name": "Maryland"}, {"count": 432, "path": "Maine", "state": "displayed", "name": "Maine"}, {"count": 424, "path": "South Carolina", "state": "displayed", "name": "South Carolina"}, {"count": 423, "path": "Mississippi", "state": "displayed", "name": "Mississippi"}, {"count": 417, "path": "Oregon", "state": "displayed", "name": "Oregon"}, {"count": 405, "path": "Arizona", "state": "displayed", "name": "Arizona"}, {"count": 383, "path": "North Dakota", "state": "displayed", "name": "North Dakota"}, {"count": 371, "path": "South Dakota", "state": "displayed", "name": "South Dakota"}, {"count": 368, "path": "New Mexico", "state": "displayed", "name": "New Mexico"}, {"count": 361, "path": "Montana", "state": "displayed", "name": "Montana"}, {"count": 287, "path": "Utah", "state": "displayed", "name": "Utah"}, {"count": 282, "path": "Connecticut", "state": "displayed", "name": "Connecticut"}, {"count": 277, "path": "Idaho", "state": "displayed", "name": "Idaho"}, {"count": 255, "path": "Vermont", "state": "displayed", "name": "Vermont"}, {"count": 248, "path": "New Hampshire", "state": "displayed", "name": "New Hampshire"}, {"count": 238, "path": "Alaska", "state": "displayed", "name": "Alaska"}, {"count": 178, "path": "Wyoming", "state": "displayed", "name": "Wyoming"}, {"count": 175, "path": "Nevada", "state": "displayed", "name": "Nevada"}, {"count": 131, "path": "Puerto Rico", "state": "displayed", "name": "Puerto Rico"}, {"count": 94, "path": "Hawaii", "state": "displayed", "name": "Hawaii"}, {"count": 77, "path": "Rhode Island", "state": "displayed", "name": "Rhode Island"}, {"count": 67, "path": "Delaware", "state": "displayed", "name": "Delaware"}, {"count": 52, "path": "District of Columbia", "state": "displayed", "name": "District of Columbia"}, {"count": 11, "path": "Virgin Islands", "state": "displayed", "name": "Virgin Islands"}, {"count": 9, "path": "Guam", "state": "displayed", "name": "Guam"}, {"count": 3, "path": "Northern Mariana Islands", "state": "displayed", "name": "Northern Mariana Islands"}, {"count": 1, "path": "American Samoa", "state": "displayed", "name": "American Samoa"}], "name": "ste_name"}, {"facets": [{"count": 1935, "path": "TX", "state": "displayed", "name": "TX"}, {"count": 1795, "path": "PA", "state": "displayed", "name": "PA"}, {"count": 1794, "path": "NY", "state": "displayed", "name": "NY"}, {"count": 1761, "path": "CA", "state": "displayed", "name": "CA"}, {"count": 1383, "path": "IL", "state": "displayed", "name": "IL"}, {"count": 1195, "path": "OH", "state": "displayed", "name": "OH"}, {"count": 1022, "path": "MO", "state": "displayed", "name": "MO"}, {"count": 986, "path": "MI", "state": "displayed", "name": "MI"}, {"count": 981, "path": "FL", "state": "displayed", "name": "FL"}, {"count": 934, "path": "IA", "state": "displayed", "name": "IA"}, {"count": 896, "path": "VA", "state": "displayed", "name": "VA"}, {"count": 884, "path": "MN", "state": "displayed", "name": "MN"}, {"count": 808, "path": "NC", "state": "displayed", "name": "NC"}, {"count": 775, "path": "IN", "state": "displayed", "name": "IN"}, {"count": 772, "path": "WI", "state": "displayed", "name": "WI"}, {"count": 767, "path": "KY", "state": "displayed", "name": "KY"}, {"count": 735, "path": "GA", "state": "displayed", "name": "GA"}, {"count": 706, "path": "WV", "state": "displayed", "name": "WV"}, {"count": 697, "path": "KS", "state": "displayed", "name": "KS"}, {"count": 648, "path": "OK", "state": "displayed", "name": "OK"}, {"count": 642, "path": "AL", "state": "displayed", "name": "AL"}, {"count": 628, "path": "TN", "state": "displayed", "name": "TN"}, {"count": 596, "path": "WA", "state": "displayed", "name": "WA"}, {"count": 595, "path": "NJ", "state": "displayed", "name": "NJ"}, {"count": 591, "path": "AR", "state": "displayed", "name": "AR"}, {"count": 581, "path": "NE", "state": "displayed", "name": "NE"}, {"count": 537, "path": "MA", "state": "displayed", "name": "MA"}, {"count": 525, "path": "CO", "state": "displayed", "name": "CO"}, {"count": 515, "path": "LA", "state": "displayed", "name": "LA"}, {"count": 468, "path": "MD", "state": "displayed", "name": "MD"}, {"count": 432, "path": "ME", "state": "displayed", "name": "ME"}, {"count": 424, "path": "SC", "state": "displayed", "name": "SC"}, {"count": 423, "path": "MS", "state": "displayed", "name": "MS"}, {"count": 417, "path": "OR", "state": "displayed", "name": "OR"}, {"count": 405, "path": "AZ", "state": "displayed", "name": "AZ"}, {"count": 383, "path": "ND", "state": "displayed", "name": "ND"}, {"count": 371, "path": "SD", "state": "displayed", "name": "SD"}, {"count": 368, "path": "NM", "state": "displayed", "name": "NM"}, {"count": 361, "path": "MT", "state": "displayed", "name": "MT"}, {"count": 287, "path": "UT", "state": "displayed", "name": "UT"}, {"count": 282, "path": "CT", "state": "displayed", "name": "CT"}, {"count": 277, "path": "ID", "state": "displayed", "name": "ID"}, {"count": 255, "path": "VT", "state": "displayed", "name": "VT"}, {"count": 248, "path": "NH", "state": "displayed", "name": "NH"}, {"count": 238, "path": "AK", "state": "displayed", "name": "AK"}, {"count": 178, "path": "WY", "state": "displayed", "name": "WY"}, {"count": 175, "path": "NV", "state": "displayed", "name": "NV"}, {"count": 131, "path": "PR", "state": "displayed", "name": "PR"}, {"count": 94, "path": "HI", "state": "displayed", "name": "HI"}, {"count": 77, "path": "RI", "state": "displayed", "name": "RI"}, {"count": 67, "path": "DE", "state": "displayed", "name": "DE"}, {"count": 52, "path": "DC", "state": "displayed", "name": "DC"}, {"count": 11, "path": "VI", "state": "displayed", "name": "VI"}, {"count": 9, "path": "GU", "state": "displayed", "name": "GU"}, {"count": 3, "path": "MP", "state": "displayed", "name": "MP"}, {"count": 1, "path": "AS", "state": "displayed", "name": "AS"}], "name": "stusps_code"}, {"facets": [{"count": 505, "path": "Washington", "state": "displayed", "name": "Washington"}, {"count": 464, "path": "Jefferson", "state": "displayed", "name": "Jefferson"}, {"count": 375, "path": "Franklin", "state": "displayed", "name": "Franklin"}, {"count": 354, "path": "Montgomery", "state": "displayed", "name": "Montgomery"}, {"count": 346, "path": "Jackson", "state": "displayed", "name": "Jackson"}, {"count": 300, "path": "Los Angeles", "state": "displayed", "name": "Los Angeles"}, {"count": 279, "path": "Lincoln", "state": "displayed", "name": "Lincoln"}, {"count": 273, "path": "Monroe", "state": "displayed", "name": "Monroe"}, {"count": 271, "path": "Wayne", "state": "displayed", "name": "Wayne"}, {"count": 258, "path": "Madison", "state": "displayed", "name": "Madison"}, {"count": 258, "path": "Marion", "state": "displayed", "name": "Marion"}, {"count": 257, "path": "Orange", "state": "displayed", "name": "Orange"}, {"count": 225, "path": "Fayette", "state": "displayed", "name": "Fayette"}, {"count": 204, "path": "Clark", "state": "displayed", "name": "Clark"}, {"count": 204, "path": "Greene", "state": "displayed", "name": "Greene"}, {"count": 204, "path": "Polk", "state": "displayed", "name": "Polk"}, {"count": 199, "path": "Clay", "state": "displayed", "name": "Clay"}, {"count": 190, "path": "Douglas", "state": "displayed", "name": "Douglas"}, {"count": 185, "path": "Cook", "state": "displayed", "name": "Cook"}, {"count": 185, "path": "Union", "state": "displayed", "name": "Union"}, {"count": 181, "path": "Carroll", "state": "displayed", "name": "Carroll"}, {"count": 180, "path": "Warren", "state": "displayed", "name": "Warren"}, {"count": 172, "path": "Hamilton", "state": "displayed", "name": "Hamilton"}, {"count": 172, "path": "Lake", "state": "displayed", "name": "Lake"}, {"count": 169, "path": "Grant", "state": "displayed", "name": "Grant"}, {"count": 163, "path": "Johnson", "state": "displayed", "name": "Johnson"}, {"count": 162, "path": "Shelby", "state": "displayed", "name": "Shelby"}, {"count": 161, "path": "Middlesex", "state": "displayed", "name": "Middlesex"}, {"count": 159, "path": "Delaware", "state": "displayed", "name": "Delaware"}, {"count": 159, "path": "Lee", "state": "displayed", "name": "Lee"}, {"count": 153, "path": "Harris", "state": "displayed", "name": "Harris"}, {"count": 151, "path": "Suffolk", "state": "displayed", "name": "Suffolk"}, {"count": 150, "path": "Adams", "state": "displayed", "name": "Adams"}, {"count": 148, "path": "Dallas", "state": "displayed", "name": "Dallas"}, {"count": 143, "path": "Cass", "state": "displayed", "name": "Cass"}, {"count": 143, "path": "Hancock", "state": "displayed", "name": "Hancock"}, {"count": 140, "path": "Pike", "state": "displayed", "name": "Pike"}, {"count": 139, "path": "Knox", "state": "displayed", "name": "Knox"}, {"count": 138, "path": "Crawford", "state": "displayed", "name": "Crawford"}, {"count": 138, "path": "Fulton", "state": "displayed", "name": "Fulton"}, {"count": 136, "path": "Cumberland", "state": "displayed", "name": "Cumberland"}, {"count": 136, "path": "Maricopa", "state": "displayed", "name": "Maricopa"}, {"count": 135, "path": "Clinton", "state": "displayed", "name": "Clinton"}, {"count": 134, "path": "Marshall", "state": "displayed", "name": "Marshall"}, {"count": 132, "path": "Essex", "state": "displayed", "name": "Essex"}, {"count": 131, "path": "Lawrence", "state": "displayed", "name": "Lawrence"}, {"count": 131, "path": "Logan", "state": "displayed", "name": "Logan"}, {"count": 130, "path": "Henry", "state": "displayed", "name": "Henry"}, {"count": 128, "path": "Sullivan", "state": "displayed", "name": "Sullivan"}, {"count": 127, "path": "Butler", "state": "displayed", "name": "Butler"}, {"count": 120, "path": "Mercer", "state": "displayed", "name": "Mercer"}, {"count": 117, "path": "York", "state": "displayed", "name": "York"}, {"count": 116, "path": "Erie", "state": "displayed", "name": "Erie"}, {"count": 116, "path": "Perry", "state": "displayed", "name": "Perry"}, {"count": 115, "path": "St. Louis", "state": "displayed", "name": "St. Louis"}, {"count": 114, "path": "Allegheny", "state": "displayed", "name": "Allegheny"}, {"count": 113, "path": "Benton", "state": "displayed", "name": "Benton"}, {"count": 113, "path": "Calhoun", "state": "displayed", "name": "Calhoun"}, {"count": 113, "path": "DeKalb", "state": "displayed", "name": "DeKalb"}, {"count": 111, "path": "Columbia", "state": "displayed", "name": "Columbia"}, {"count": 109, "path": "Lancaster", "state": "displayed", "name": "Lancaster"}, {"count": 109, "path": "Livingston", "state": "displayed", "name": "Livingston"}, {"count": 109, "path": "Morgan", "state": "displayed", "name": "Morgan"}, {"count": 109, "path": "Randolph", "state": "displayed", "name": "Randolph"}, {"count": 108, "path": "Boone", "state": "displayed", "name": "Boone"}, {"count": 108, "path": "Harrison", "state": "displayed", "name": "Harrison"}, {"count": 108, "path": "San Diego", "state": "displayed", "name": "San Diego"}, {"count": 108, "path": "Somerset", "state": "displayed", "name": "Somerset"}, {"count": 105, "path": "Putnam", "state": "displayed", "name": "Putnam"}, {"count": 104, "path": "Scott", "state": "displayed", "name": "Scott"}, {"count": 102, "path": "Brown", "state": "displayed", "name": "Brown"}, {"count": 102, "path": "Jasper", "state": "displayed", "name": "Jasper"}, {"count": 99, "path": "Worcester", "state": "displayed", "name": "Worcester"}, {"count": 97, "path": "Richland", "state": "displayed", "name": "Richland"}, {"count": 96, "path": "Westmoreland", "state": "displayed", "name": "Westmoreland"}, {"count": 95, "path": "San Bernardino", "state": "displayed", "name": "San Bernardino"}, {"count": 93, "path": "Cherokee", "state": "displayed", "name": "Cherokee"}, {"count": 93, "path": "Pierce", "state": "displayed", "name": "Pierce"}, {"count": 89, "path": "Hillsborough", "state": "displayed", "name": "Hillsborough"}, {"count": 89, "path": "King", "state": "displayed", "name": "King"}, {"count": 88, "path": "Lewis", "state": "displayed", "name": "Lewis"}, {"count": 88, "path": "St. Clair", "state": "displayed", "name": "St. Clair"}, {"count": 86, "path": "Floyd", "state": "displayed", "name": "Floyd"}, {"count": 86, "path": "Pulaski", "state": "displayed", "name": "Pulaski"}, {"count": 86, "path": "Webster", "state": "displayed", "name": "Webster"}, {"count": 80, "path": "Miami-Dade", "state": "displayed", "name": "Miami-Dade"}, {"count": 78, "path": "Allen", "state": "displayed", "name": "Allen"}, {"count": 78, "path": "Bexar", "state": "displayed", "name": "Bexar"}, {"count": 77, "path": "Kent", "state": "displayed", "name": "Kent"}, {"count": 77, "path": "Newton", "state": "displayed", "name": "Newton"}, {"count": 77, "path": "Wyoming", "state": "displayed", "name": "Wyoming"}, {"count": 76, "path": "El Paso", "state": "displayed", "name": "El Paso"}, {"count": 76, "path": "Nassau", "state": "displayed", "name": "Nassau"}, {"count": 76, "path": "Westchester", "state": "displayed", "name": "Westchester"}, {"count": 75, "path": "Riverside", "state": "displayed", "name": "Riverside"}, {"count": 74, "path": "Fairfield", "state": "displayed", "name": "Fairfield"}, {"count": 74, "path": "Tarrant", "state": "displayed", "name": "Tarrant"}, {"count": 73, "path": "Howard", "state": "displayed", "name": "Howard"}, {"count": 73, "path": "Linn", "state": "displayed", "name": "Linn"}, {"count": 72, "path": "Hennepin", "state": "displayed", "name": "Hennepin"}, {"count": 72, "path": "Macon", "state": "displayed", "name": "Macon"}, {"count": 71, "path": "Morris", "state": "displayed", "name": "Morris"}, {"count": 71, "path": "Oakland", "state": "displayed", "name": "Oakland"}, {"count": 71, "path": "Oneida", "state": "displayed", "name": "Oneida"}, {"count": 70, "path": "Baltimore", "state": "displayed", "name": "Baltimore"}, {"count": 70, "path": "Hardin", "state": "displayed", "name": "Hardin"}, {"count": 70, "path": "New York", "state": "displayed", "name": "New York"}, {"count": 70, "path": "Rockingham", "state": "displayed", "name": "Rockingham"}, {"count": 70, "path": "Wood", "state": "displayed", "name": "Wood"}, {"count": 69, "path": "Queens", "state": "displayed", "name": "Queens"}, {"count": 69, "path": "San Juan", "state": "displayed", "name": "San Juan"}, {"count": 68, "path": "Taylor", "state": "displayed", "name": "Taylor"}, {"count": 67, "path": "Bergen", "state": "displayed", "name": "Bergen"}, {"count": 66, "path": "Chester", "state": "displayed", "name": "Chester"}, {"count": 65, "path": "Camden", "state": "displayed", "name": "Camden"}, {"count": 65, "path": "Henderson", "state": "displayed", "name": "Henderson"}, {"count": 64, "path": "Lafayette", "state": "displayed", "name": "Lafayette"}, {"count": 63, "path": "Santa Clara", "state": "displayed", "name": "Santa Clara"}, {"count": 63, "path": "Williamson", "state": "displayed", "name": "Williamson"}, {"count": 62, "path": "Berks", "state": "displayed", "name": "Berks"}, {"count": 62, "path": "Mason", "state": "displayed", "name": "Mason"}, {"count": 61, "path": "Bedford", "state": "displayed", "name": "Bedford"}, {"count": 61, "path": "Ulster", "state": "displayed", "name": "Ulster"}, {"count": 60, "path": "Hartford", "state": "displayed", "name": "Hartford"}, {"count": 60, "path": "Ottawa", "state": "displayed", "name": "Ottawa"}, {"count": 60, "path": "Stark", "state": "displayed", "name": "Stark"}, {"count": 60, "path": "Travis", "state": "displayed", "name": "Travis"}, {"count": 59, "path": "Humboldt", "state": "displayed", "name": "Humboldt"}, {"count": 59, "path": "Jones", "state": "displayed", "name": "Jones"}, {"count": 59, "path": "Schuylkill", "state": "displayed", "name": "Schuylkill"}, {"count": 58, "path": "Albany", "state": "displayed", "name": "Albany"}, {"count": 58, "path": "Fresno", "state": "displayed", "name": "Fresno"}, {"count": 58, "path": "Smith", "state": "displayed", "name": "Smith"}, {"count": 57, "path": "Martin", "state": "displayed", "name": "Martin"}, {"count": 57, "path": "McLean", "state": "displayed", "name": "McLean"}, {"count": 56, "path": "Orleans", "state": "displayed", "name": "Orleans"}, {"count": 55, "path": "Norfolk", "state": "displayed", "name": "Norfolk"}, {"count": 55, "path": "Oklahoma", "state": "displayed", "name": "Oklahoma"}, {"count": 55, "path": "Onondaga", "state": "displayed", "name": "Onondaga"}, {"count": 55, "path": "Sacramento", "state": "displayed", "name": "Sacramento"}, {"count": 55, "path": "Saline", "state": "displayed", "name": "Saline"}, {"count": 55, "path": "Sussex", "state": "displayed", "name": "Sussex"}, {"count": 55, "path": "Windham", "state": "displayed", "name": "Windham"}, {"count": 54, "path": "Bucks", "state": "displayed", "name": "Bucks"}, {"count": 54, "path": "Carbon", "state": "displayed", "name": "Carbon"}, {"count": 54, "path": "Custer", "state": "displayed", "name": "Custer"}, {"count": 54, "path": "Dodge", "state": "displayed", "name": "Dodge"}, {"count": 54, "path": "Genesee", "state": "displayed", "name": "Genesee"}, {"count": 54, "path": "Sedgwick", "state": "displayed", "name": "Sedgwick"}, {"count": 54, "path": "Summit", "state": "displayed", "name": "Summit"}, {"count": 54, "path": "Winnebago", "state": "displayed", "name": "Winnebago"}, {"count": 53, "path": "Alameda", "state": "displayed", "name": "Alameda"}, {"count": 53, "path": "Anderson", "state": "displayed", "name": "Anderson"}, {"count": 53, "path": "Broward", "state": "displayed", "name": "Broward"}, {"count": 53, "path": "Christian", "state": "displayed", "name": "Christian"}, {"count": 53, "path": "Palm Beach", "state": "displayed", "name": "Palm Beach"}, {"count": 53, "path": "Van Buren", "state": "displayed", "name": "Van Buren"}, {"count": 53, "path": "White", "state": "displayed", "name": "White"}, {"count": 52, "path": "Champaign", "state": "displayed", "name": "Champaign"}, {"count": 52, "path": "Cuyahoga", "state": "displayed", "name": "Cuyahoga"}, {"count": 52, "path": "District of Columbia", "state": "displayed", "name": "District of Columbia"}, {"count": 52, "path": "Garfield", "state": "displayed", "name": "Garfield"}, {"count": 52, "path": "Luzerne", "state": "displayed", "name": "Luzerne"}, {"count": 52, "path": "Monmouth", "state": "displayed", "name": "Monmouth"}, {"count": 52, "path": "Pima", "state": "displayed", "name": "Pima"}, {"count": 51, "path": "Cambria", "state": "displayed", "name": "Cambria"}, {"count": 51, "path": "Clearfield", "state": "displayed", "name": "Clearfield"}, {"count": 51, "path": "Houston", "state": "displayed", "name": "Houston"}, {"count": 51, "path": "Kern", "state": "displayed", "name": "Kern"}, {"count": 51, "path": "St. Lawrence", "state": "displayed", "name": "St. Lawrence"}, {"count": 50, "path": "Allegany", "state": "displayed", "name": "Allegany"}, {"count": 50, "path": "Barnstable", "state": "displayed", "name": "Barnstable"}, {"count": 50, "path": "Contra Costa", "state": "displayed", "name": "Contra Costa"}, {"count": 50, "path": "Davidson", "state": "displayed", "name": "Davidson"}, {"count": 50, "path": "Grundy", "state": "displayed", "name": "Grundy"}, {"count": 50, "path": "Indiana", "state": "displayed", "name": "Indiana"}, {"count": 50, "path": "Lyon", "state": "displayed", "name": "Lyon"}, {"count": 50, "path": "Northampton", "state": "displayed", "name": "Northampton"}, {"count": 50, "path": "Richmond", "state": "displayed", "name": "Richmond"}, {"count": 49, "path": "Fairfax", "state": "displayed", "name": "Fairfax"}, {"count": 49, "path": "Kings", "state": "displayed", "name": "Kings"}, {"count": 49, "path": "Osage", "state": "displayed", "name": "Osage"}, {"count": 49, "path": "Steuben", "state": "displayed", "name": "Steuben"}, {"count": 49, "path": "Wilson", "state": "displayed", "name": "Wilson"}, {"count": 48, "path": "Otsego", "state": "displayed", "name": "Otsego"}, {"count": 48, "path": "Penobscot", "state": "displayed", "name": "Penobscot"}, {"count": 48, "path": "Philadelphia", "state": "displayed", "name": "Philadelphia"}, {"count": 48, "path": "Pinellas", "state": "displayed", "name": "Pinellas"}, {"count": 48, "path": "Sheridan", "state": "displayed", "name": "Sheridan"}, {"count": 47, "path": "Buchanan", "state": "displayed", "name": "Buchanan"}, {"count": 47, "path": "Campbell", "state": "displayed", "name": "Campbell"}, {"count": 47, "path": "Frederick", "state": "displayed", "name": "Frederick"}, {"count": 47, "path": "Hampshire", "state": "displayed", "name": "Hampshire"}, {"count": 47, "path": "Kanawha", "state": "displayed", "name": "Kanawha"}, {"count": 47, "path": "Mecklenburg", "state": "displayed", "name": "Mecklenburg"}, {"count": 46, "path": "Chautauqua", "state": "displayed", "name": "Chautauqua"}, {"count": 46, "path": "Iron", "state": "displayed", "name": "Iron"}, {"count": 46, "path": "Plymouth", "state": "displayed", "name": "Plymouth"}, {"count": 46, "path": "Portage", "state": "displayed", "name": "Portage"}, {"count": 45, "path": "Dane", "state": "displayed", "name": "Dane"}], "name": "coty_name"}, {"facets": [{"count": 283, "path": "6037", "state": "displayed", "name": "6037"}, {"count": 174, "path": "17031", "state": "displayed", "name": "17031"}, {"count": 141, "path": "48201", "state": "displayed", "name": "48201"}, {"count": 125, "path": "4013", "state": "displayed", "name": "4013"}, {"count": 114, "path": "42003", "state": "displayed", "name": "42003"}, {"count": 108, "path": "36103", "state": "displayed", "name": "36103"}, {"count": 102, "path": "6073", "state": "displayed", "name": "6073"}, {"count": 93, "path": "48113", "state": "displayed", "name": "48113"}, {"count": 88, "path": "42129", "state": "displayed", "name": "42129"}, {"count": 87, "path": "25027", "state": "displayed", "name": "25027"}, {"count": 84, "path": "25017", "state": "displayed", "name": "25017"}, {"count": 83, "path": "53033", "state": "displayed", "name": "53033"}, {"count": 80, "path": "12086", "state": "displayed", "name": "12086"}, {"count": 78, "path": "6059", "state": "displayed", "name": "6059"}, {"count": 78, "path": "6071", "state": "displayed", "name": "6071"}, {"count": 76, "path": "36119", "state": "displayed", "name": "36119"}, {"count": 76, "path": "48029", "state": "displayed", "name": "48029"}, {"count": 73, "path": "32003", "state": "displayed", "name": "32003"}, {"count": 72, "path": "27053", "state": "displayed", "name": "27053"}, {"count": 71, "path": "26125", "state": "displayed", "name": "26125"}, {"count": 71, "path": "48439", "state": "displayed", "name": "48439"}, {"count": 70, "path": "26163", "state": "displayed", "name": "26163"}, {"count": 70, "path": "36029", "state": "displayed", "name": "36029"}, {"count": 70, "path": "36059", "state": "displayed", "name": "36059"}, {"count": 70, "path": "36061", "state": "displayed", "name": "36061"}, {"count": 69, "path": "36081", "state": "displayed", "name": "36081"}, {"count": 69, "path": "42091", "state": "displayed", "name": "42091"}, {"count": 67, "path": "34003", "state": "displayed", "name": "34003"}, {"count": 64, "path": "42125", "state": "displayed", "name": "42125"}, {"count": 62, "path": "42011", "state": "displayed", "name": "42011"}, {"count": 62, "path": "42051", "state": "displayed", "name": "42051"}, {"count": 61, "path": "36105", "state": "displayed", "name": "36105"}, {"count": 61, "path": "36111", "state": "displayed", "name": "36111"}, {"count": 61, "path": "6065", "state": "displayed", "name": "6065"}, {"count": 59, "path": "42107", "state": "displayed", "name": "42107"}, {"count": 57, "path": "29095", "state": "displayed", "name": "29095"}, {"count": 57, "path": "34027", "state": "displayed", "name": "34027"}, {"count": 57, "path": "39061", "state": "displayed", "name": "39061"}, {"count": 57, "path": "42071", "state": "displayed", "name": "42071"}, {"count": 56, "path": "48453", "state": "displayed", "name": "48453"}, {"count": 55, "path": "12057", "state": "displayed", "name": "12057"}, {"count": 55, "path": "24005", "state": "displayed", "name": "24005"}, {"count": 55, "path": "36067", "state": "displayed", "name": "36067"}, {"count": 55, "path": "40109", "state": "displayed", "name": "40109"}, {"count": 55, "path": "53053", "state": "displayed", "name": "53053"}, {"count": 55, "path": "9003", "state": "displayed", "name": "9003"}, {"count": 54, "path": "42017", "state": "displayed", "name": "42017"}, {"count": 53, "path": "12011", "state": "displayed", "name": "12011"}, {"count": 53, "path": "12099", "state": "displayed", "name": "12099"}, {"count": 53, "path": "36065", "state": "displayed", "name": "36065"}, {"count": 52, "path": "11001", "state": "displayed", "name": "11001"}, {"count": 52, "path": "34025", "state": "displayed", "name": "34025"}, {"count": 52, "path": "36071", "state": "displayed", "name": "36071"}, {"count": 52, "path": "39035", "state": "displayed", "name": "39035"}, {"count": 52, "path": "42079", "state": "displayed", "name": "42079"}, {"count": 51, "path": "36089", "state": "displayed", "name": "36089"}, {"count": 51, "path": "42021", "state": "displayed", "name": "42021"}, {"count": 51, "path": "42033", "state": "displayed", "name": "42033"}, {"count": 51, "path": "6085", "state": "displayed", "name": "6085"}, {"count": 50, "path": "20173", "state": "displayed", "name": "20173"}, {"count": 50, "path": "25001", "state": "displayed", "name": "25001"}, {"count": 50, "path": "27137", "state": "displayed", "name": "27137"}, {"count": 50, "path": "36055", "state": "displayed", "name": "36055"}, {"count": 50, "path": "42063", "state": "displayed", "name": "42063"}, {"count": 49, "path": "24031", "state": "displayed", "name": "24031"}, {"count": 49, "path": "39049", "state": "displayed", "name": "39049"}, {"count": 48, "path": "12103", "state": "displayed", "name": "12103"}, {"count": 48, "path": "23019", "state": "displayed", "name": "23019"}, {"count": 48, "path": "42101", "state": "displayed", "name": "42101"}, {"count": 47, "path": "12095", "state": "displayed", "name": "12095"}, {"count": 47, "path": "29189", "state": "displayed", "name": "29189"}, {"count": 47, "path": "36025", "state": "displayed", "name": "36025"}, {"count": 46, "path": "13121", "state": "displayed", "name": "13121"}, {"count": 45, "path": "36001", "state": "displayed", "name": "36001"}, {"count": 45, "path": "42133", "state": "displayed", "name": "42133"}, {"count": 44, "path": "17197", "state": "displayed", "name": "17197"}, {"count": 44, "path": "23003", "state": "displayed", "name": "23003"}, {"count": 43, "path": "1073", "state": "displayed", "name": "1073"}, {"count": 43, "path": "17043", "state": "displayed", "name": "17043"}, {"count": 43, "path": "23009", "state": "displayed", "name": "23009"}, {"count": 43, "path": "25009", "state": "displayed", "name": "25009"}, {"count": 43, "path": "40143", "state": "displayed", "name": "40143"}, {"count": 43, "path": "4019", "state": "displayed", "name": "4019"}, {"count": 43, "path": "42029", "state": "displayed", "name": "42029"}, {"count": 43, "path": "42045", "state": "displayed", "name": "42045"}, {"count": 42, "path": "24003", "state": "displayed", "name": "24003"}, {"count": 42, "path": "31109", "state": "displayed", "name": "31109"}, {"count": 42, "path": "36039", "state": "displayed", "name": "36039"}, {"count": 42, "path": "41051", "state": "displayed", "name": "41051"}, {"count": 42, "path": "51059", "state": "displayed", "name": "51059"}, {"count": 42, "path": "6067", "state": "displayed", "name": "6067"}, {"count": 41, "path": "12105", "state": "displayed", "name": "12105"}, {"count": 41, "path": "25013", "state": "displayed", "name": "25013"}, {"count": 41, "path": "25021", "state": "displayed", "name": "25021"}, {"count": 41, "path": "34023", "state": "displayed", "name": "34023"}, {"count": 41, "path": "36045", "state": "displayed", "name": "36045"}, {"count": 41, "path": "36077", "state": "displayed", "name": "36077"}, {"count": 40, "path": "19153", "state": "displayed", "name": "19153"}, {"count": 40, "path": "26099", "state": "displayed", "name": "26099"}, {"count": 40, "path": "36101", "state": "displayed", "name": "36101"}, {"count": 40, "path": "39151", "state": "displayed", "name": "39151"}, {"count": 40, "path": "39153", "state": "displayed", "name": "39153"}, {"count": 40, "path": "47157", "state": "displayed", "name": "47157"}, {"count": 40, "path": "9001", "state": "displayed", "name": "9001"}, {"count": 39, "path": "12071", "state": "displayed", "name": "12071"}, {"count": 39, "path": "18097", "state": "displayed", "name": "18097"}, {"count": 39, "path": "21111", "state": "displayed", "name": "21111"}, {"count": 39, "path": "24033", "state": "displayed", "name": "24033"}, {"count": 39, "path": "39113", "state": "displayed", "name": "39113"}, {"count": 39, "path": "41039", "state": "displayed", "name": "41039"}, {"count": 39, "path": "42111", "state": "displayed", "name": "42111"}, {"count": 39, "path": "44007", "state": "displayed", "name": "44007"}, {"count": 38, "path": "23005", "state": "displayed", "name": "23005"}, {"count": 38, "path": "26081", "state": "displayed", "name": "26081"}, {"count": 38, "path": "34005", "state": "displayed", "name": "34005"}, {"count": 38, "path": "36047", "state": "displayed", "name": "36047"}, {"count": 38, "path": "37183", "state": "displayed", "name": "37183"}, {"count": 38, "path": "42077", "state": "displayed", "name": "42077"}, {"count": 38, "path": "47037", "state": "displayed", "name": "47037"}, {"count": 38, "path": "54039", "state": "displayed", "name": "54039"}, {"count": 37, "path": "1097", "state": "displayed", "name": "1097"}, {"count": 37, "path": "21195", "state": "displayed", "name": "21195"}, {"count": 37, "path": "33015", "state": "displayed", "name": "33015"}, {"count": 37, "path": "41005", "state": "displayed", "name": "41005"}, {"count": 37, "path": "42019", "state": "displayed", "name": "42019"}, {"count": 37, "path": "6019", "state": "displayed", "name": "6019"}, {"count": 36, "path": "13089", "state": "displayed", "name": "13089"}, {"count": 36, "path": "23031", "state": "displayed", "name": "23031"}, {"count": 36, "path": "25005", "state": "displayed", "name": "25005"}, {"count": 36, "path": "26049", "state": "displayed", "name": "26049"}, {"count": 36, "path": "33009", "state": "displayed", "name": "33009"}, {"count": 36, "path": "36009", "state": "displayed", "name": "36009"}, {"count": 36, "path": "36013", "state": "displayed", "name": "36013"}, {"count": 36, "path": "36021", "state": "displayed", "name": "36021"}, {"count": 36, "path": "36031", "state": "displayed", "name": "36031"}, {"count": 36, "path": "39099", "state": "displayed", "name": "39099"}, {"count": 36, "path": "42005", "state": "displayed", "name": "42005"}, {"count": 36, "path": "42089", "state": "displayed", "name": "42089"}, {"count": 35, "path": "12031", "state": "displayed", "name": "12031"}, {"count": 35, "path": "15003", "state": "displayed", "name": "15003"}, {"count": 35, "path": "17019", "state": "displayed", "name": "17019"}, {"count": 35, "path": "23017", "state": "displayed", "name": "23017"}, {"count": 35, "path": "24021", "state": "displayed", "name": "24021"}, {"count": 35, "path": "25025", "state": "displayed", "name": "25025"}, {"count": 35, "path": "31055", "state": "displayed", "name": "31055"}, {"count": 35, "path": "34007", "state": "displayed", "name": "34007"}, {"count": 35, "path": "35039", "state": "displayed", "name": "35039"}, {"count": 35, "path": "36003", "state": "displayed", "name": "36003"}, {"count": 35, "path": "54019", "state": "displayed", "name": "54019"}, {"count": 34, "path": "17097", "state": "displayed", "name": "17097"}, {"count": 34, "path": "17163", "state": "displayed", "name": "17163"}, {"count": 34, "path": "20091", "state": "displayed", "name": "20091"}, {"count": 34, "path": "21071", "state": "displayed", "name": "21071"}, {"count": 34, "path": "25023", "state": "displayed", "name": "25023"}, {"count": 34, "path": "33011", "state": "displayed", "name": "33011"}, {"count": 34, "path": "36027", "state": "displayed", "name": "36027"}, {"count": 34, "path": "37119", "state": "displayed", "name": "37119"}, {"count": 34, "path": "45083", "state": "displayed", "name": "45083"}, {"count": 34, "path": "48085", "state": "displayed", "name": "48085"}, {"count": 34, "path": "48121", "state": "displayed", "name": "48121"}, {"count": 34, "path": "53063", "state": "displayed", "name": "53063"}, {"count": 34, "path": "55025", "state": "displayed", "name": "55025"}, {"count": 34, "path": "6001", "state": "displayed", "name": "6001"}, {"count": 33, "path": "25003", "state": "displayed", "name": "25003"}, {"count": 33, "path": "27111", "state": "displayed", "name": "27111"}, {"count": 33, "path": "42027", "state": "displayed", "name": "42027"}, {"count": 33, "path": "54081", "state": "displayed", "name": "54081"}, {"count": 33, "path": "6029", "state": "displayed", "name": "6029"}, {"count": 33, "path": "9009", "state": "displayed", "name": "9009"}, {"count": 32, "path": "10003", "state": "displayed", "name": "10003"}, {"count": 32, "path": "17089", "state": "displayed", "name": "17089"}, {"count": 32, "path": "17113", "state": "displayed", "name": "17113"}, {"count": 32, "path": "17119", "state": "displayed", "name": "17119"}, {"count": 32, "path": "18003", "state": "displayed", "name": "18003"}, {"count": 32, "path": "23029", "state": "displayed", "name": "23029"}, {"count": 32, "path": "27145", "state": "displayed", "name": "27145"}, {"count": 32, "path": "34013", "state": "displayed", "name": "34013"}, {"count": 32, "path": "34035", "state": "displayed", "name": "34035"}, {"count": 32, "path": "42049", "state": "displayed", "name": "42049"}, {"count": 32, "path": "42055", "state": "displayed", "name": "42055"}, {"count": 32, "path": "42061", "state": "displayed", "name": "42061"}, {"count": 32, "path": "49035", "state": "displayed", "name": "49035"}, {"count": 32, "path": "6013", "state": "displayed", "name": "6013"}, {"count": 31, "path": "12083", "state": "displayed", "name": "12083"}, {"count": 31, "path": "17011", "state": "displayed", "name": "17011"}, {"count": 31, "path": "24510", "state": "displayed", "name": "24510"}, {"count": 31, "path": "34031", "state": "displayed", "name": "34031"}, {"count": 31, "path": "37081", "state": "displayed", "name": "37081"}, {"count": 31, "path": "39173", "state": "displayed", "name": "39173"}, {"count": 30, "path": "25011", "state": "displayed", "name": "25011"}, {"count": 30, "path": "27061", "state": "displayed", "name": "27061"}, {"count": 30, "path": "33013", "state": "displayed", "name": "33013"}, {"count": 30, "path": "34001", "state": "displayed", "name": "34001"}, {"count": 30, "path": "34029", "state": "displayed", "name": "34029"}, {"count": 30, "path": "36053", "state": "displayed", "name": "36053"}, {"count": 30, "path": "36083", "state": "displayed", "name": "36083"}, {"count": 30, "path": "39095", "state": "displayed", "name": "39095"}, {"count": 30, "path": "42031", "state": "displayed", "name": "42031"}, {"count": 30, "path": "42043", "state": "displayed", "name": "42043"}, {"count": 30, "path": "42069", "state": "displayed", "name": "42069"}], "name": "cty_code"}]}